[
    {
        "nombre": "Museo de Arte",
        "latitud": 19.4326,
        "longitud": -99.1332,
        "descripcion": "Museo de arte moderno en la CDMX"
    },
    {
        "nombre": "Monumento a la Revolución",
        "latitud": 19.4375,
        "longitud": -99.1535,
        "descripcion": "Monumento histórico de la Revolución Mexicana"
    },
    {
        "nombre": "ESCOM",
        "latitud": 19.504829,
        "longitud": -99.146806,
        "horarios": "7:00 - 20:00",
        "accesibilidad": "Total",
        "descripcion": "Escuela perteneciente al IPN. Dedicada a la creación de ingenieros en carreras afines a la tecnología."
    },
    {
        "nombre": "Museo Numismático Nacional",
        "latitud": 19.439186,
        "longitud": -99.130988,
        "descripcion": "Escuela perteneciente al IPN. Dedicada a la creación de ingenieros en carreras afines a la tecnología."
    },
    {
        "nombre": "Museo Nacional de las Culturas del Mundo",
        "latitud": 19.433137,
        "longitud": -99.130399,
        "descripcion": "Escuela perteneciente al IPN. Dedicada a la creación de ingenieros en carreras afines a la tecnología."
    },
    {
        "nombre": "Colegio de San Idelfonso",
        "latitud": 19.436252,
        "longitud": -99.130855,
        "descripcion": "Escuela perteneciente al IPN. Dedicada a la creación de ingenieros en carreras afines a la tecnología."
    },
    {
        "nombre": "Museo Franz Mayer",
        "latitud": 19.437016,
        "longitud": -99.143120,
        "descripcion": "Escuela perteneciente al IPN. Dedicada a la creación de ingenieros en carreras afines a la tecnología."
    },
    {
        "nombre": "Museo del Templo Mayor",
        "latitud": 19.434509,
        "longitud": -99.131885,
        "descripcion": "Escuela perteneciente al IPN. Dedicada a la creación de ingenieros en carreras afines a la tecnología."
    },
    {
        "nombre": "Museo de la Medicina",
        "latitud": 19.437621,
        "longitud": -99.133064,
        "descripcion": "Escuela perteneciente al IPN. Dedicada a la creación de ingenieros en carreras afines a la tecnología."
    },
    {
        "nombre": "Museo de la Inquisición",
        "latitud": 19.435214,
        "longitud": -99.135569,
        "descripcion": "Escuela perteneciente al IPN. Dedicada a la creación de ingenieros en carreras afines a la tecnología."
    },
    {
        "nombre": "Museo de la SHCP",
        "latitud": 19.433585,
        "longitud": -99.131887,
        "descripcion": "Escuela perteneciente al IPN. Dedicada a la creación de ingenieros en carreras afines a la tecnología."
    },
    {
        "nombre": "Museo de la Ciudad de México",
        "latitud": 19.429236,
        "longitud": -99.133075,
        "descripcion": "Escuela perteneciente al IPN. Dedicada a la creación de ingenieros en carreras afines a la tecnología."
    },
    {
        "nombre": "Palacio de Bellas Artes",
        "latitud": 19.434263,
        "longitud": -99.141893,
        "descripcion": "Escuela perteneciente al IPN. Dedicada a la creación de ingenieros en carreras afines a la tecnología."
    },
    {
        "nombre": "Punto Prueba Casa",
        "latitud": 19.627899,
        "longitud": -99.016722,
        "descripcion": "Escuela perteneciente al IPN. Dedicada a la creación de ingenieros en carreras afines a la tecnología."
    }
]
